{
  "positions": [
    {
      "number": 1,
      "title": "우노 휘트니스클럽",
      "address": "서울특별시 용산구 보광로 30",
      "Lng": 127.00028916198,
      "Lat": 37.5271963248801
    },
    {
      "number": 2,
      "title": "AK운동맞춤센터",
      "address": "서울특별시 용산구 신흥로 72",
      "Lng": 126.986833851133,
      "Lat": 37.5445843629282
    },
    {
      "number": 3,
      "title": "웰니스짐",
      "address": "서울특별시 용산구 회나무로26길 12",
      "Lng": 126.991277317368,
      "Lat": 37.5395588182983
    },
    {
      "number": 4,
      "title": "동국스포츠",
      "address": "서울특별시 용산구 원효로 55",
      "Lng": 126.950483597053,
      "Lat": 37.5335550337641
    },
    {
      "number": 5,
      "title": "리콥 웰니스센터",
      "address": "서울특별시 용산구 한남대로21길 14",
      "Lng": 127.006194266565,
      "Lat": 37.5343180384265
    },
    {
      "number": 6,
      "title": "J헬스클럽",
      "address": "서울특별시 용산구 대사관로34길 26",
      "Lng": 127.005673986734,
      "Lat": 37.5320910602827
    },
    {
      "number": 7,
      "title": "스카이 휘트니스클럽",
      "address": "서울특별시 용산구 한강대로 258",
      "Lng": 126.973296099405,
      "Lat": 37.5413997471572
    },
    {
      "number": 8,
      "title": "해밀톤 휘트니스센터",
      "address": "서울특별시 용산구 이태원로27가길 26",
      "Lng": 126.993789036287,
      "Lat": 37.5351061429632
    },
    {
      "number": 9,
      "title": "드래곤힐스파휘트니스클럽",
      "address": "서울특별시 용산구 한강대로21나길 40",
      "Lng": 126.964227468456,
      "Lat": 37.5282491342856
    },
    {
      "number": 10,
      "title": "GOTO 용산점",
      "address": "서울특별시 용산구 이촌로 1",
      "Lng": 126.955345962773,
      "Lat": 37.5313838478733
    },
    {
      "number": 11,
      "title": "에이치 앤 휘트니스",
      "address": "서울특별시 용산구 독서당로 39",
      "Lng": 127.007000144767,
      "Lat": 37.5315958889326
    },
    {
      "number": 12,
      "title": "밸런스 핏",
      "address": "서울특별시 용산구 청파로47길 49",
      "Lng": 126.967563904498,
      "Lat": 37.5445841559546
    },
    {
      "number": 13,
      "title": "메가짐",
      "address": "서울특별시 용산구 한강대로43길 8",
      "Lng": 126.969753021045,
      "Lat": 37.5325823332194
    },
    {
      "number": 14,
      "title": "스포짐옐로우 이촌점",
      "address": "서울특별시 용산구 이촌로84길 9",
      "Lng": 126.977052886702,
      "Lat": 37.5184256285681
    },
    {
      "number": 15,
      "title": "킴스짐헬스크럽",
      "address": "서울특별시 용산구 이태원로27길 34-34",
      "Lng": 126.995907975366,
      "Lat": 37.5350286592294
    },
    {
      "number": 16,
      "title": "위드짐 한남점(WITHGYM)",
      "address": "서울특별시 용산구 대사관로 34",
      "Lng": 127.001833208504,
      "Lat": 37.5334210600049
    },
    {
      "number": 17,
      "title": "센티넬 크로스핏 한남1",
      "address": "서울특별시 용산구 한남대로21길 17",
      "Lng": 127.006517610304,
      "Lat": 37.5341520566604
    },
    {
      "number": 18,
      "title": "동서 골프&휘트니스",
      "address": "서울특별시 용산구 청파로 312",
      "Lng": 126.970452474932,
      "Lat": 37.5474170244174
    },
    {
      "number": 19,
      "title": "위너핏PT스튜디오",
      "address": "서울특별시 용산구 한강대로 282",
      "Lng": 126.972740100846,
      "Lat": 37.5434902095071
    },
    {
      "number": 20,
      "title": "스포짐",
      "address": "서울특별시 용산구 백범로 341",
      "Lng": 126.967973433167,
      "Lat": 37.5379386735674
    },
    {
      "number": 21,
      "title": "프라이빗 웰니스",
      "address": "서울특별시 용산구 이태원로 267",
      "Lng": 127.001133061453,
      "Lat": 37.5384987479277
    },
    {
      "number": 22,
      "title": "H 스튜디오",
      "address": "서울특별시 용산구 대사관로 76",
      "Lng": 127.006493076653,
      "Lat": 37.5330544586114
    },
    {
      "number": 23,
      "title": "반트짐",
      "address": "서울특별시 용산구 이촌로 200",
      "Lng": 126.969343240712,
      "Lat": 37.5209511026518
    },
    {
      "number": 24,
      "title": "Fit In Cool",
      "address": "서울특별시 용산구 대사관로19길 7",
      "Lng": 127.003637812857,
      "Lat": 37.5338387222596
    },
    {
      "number": 25,
      "title": "팀레드",
      "address": "서울특별시 용산구 원효로 255",
      "Lng": 126.968930531421,
      "Lat": 37.5404201033291
    },
    {
      "number": 26,
      "title": "분더바 짐",
      "address": "서울특별시 용산구 이촌로 224",
      "Lng": 126.97187711918,
      "Lat": 37.5201457860245
    },
    {
      "number": 27,
      "title": "Fit Club",
      "address": "서울특별시 용산구 녹사평대로 240",
      "Lng": 126.987600863599,
      "Lat": 37.5389082377219
    },
    {
      "number": 28,
      "title": "바나나필라 피티",
      "address": "서울특별시 용산구 독서당로 67",
      "Lng": 127.008147487881,
      "Lat": 37.5338383170395
    },
    {
      "number": 29,
      "title": "Beautiful Evolution",
      "address": "서울특별시 용산구 장문로 74",
      "Lng": 126.997854287007,
      "Lat": 37.5259279651372
    },
    {
      "number": 30,
      "title": "에스퍼스널트레이닝",
      "address": "서울특별시 용산구 서빙고로 69",
      "Lng": 126.972351473155,
      "Lat": 37.5237113460813
    },
    {
      "number": 31,
      "title": "PENTACLE",
      "address": "서울특별시 용산구 후암로 107",
      "Lng": 126.97356408407,
      "Lat": 37.5534616592161
    },
    {
      "number": 32,
      "title": "레브트레이닝",
      "address": "서울특별시 용산구 유엔빌리지1길 18",
      "Lng": 127.010461866563,
      "Lat": 37.5336420768823
    },
    {
      "number": 33,
      "title": "스포벡",
      "address": "서울특별시 용산구 한강대로 259",
      "Lng": 126.972412765985,
      "Lat": 37.5415842490492
    },
    {
      "number": 34,
      "title": "와가짐",
      "address": "서울특별시 용산구 이촌로 264",
      "Lng": 126.976133728575,
      "Lat": 37.5190291185881
    },
    {
      "number": 35,
      "title": "시크모어 웰니스 스튜디오",
      "address": "서울특별시 용산구 장문로 147",
      "Lng": 127.005426507997,
      "Lat": 37.5283355174432
    },
    {
      "number": 36,
      "title": "칼라퍼스널트레이닝",
      "address": "서울특별시 용산구 원효로 259-1",
      "Lng": 126.969317376118,
      "Lat": 37.5407385277351
    },
    {
      "number": 37,
      "title": "랜스앤제이 퍼스널 트레이닝 스튜디오",
      "address": "서울특별시 용산구 유엔빌리지길 254",
      "Lng": 127.011779894761,
      "Lat": 37.5354346741354
    },
    {
      "number": 38,
      "title": "유즈웰(USEWELL)",
      "address": "서울특별시 용산구 한남대로 60",
      "Lng": 127.007517811442,
      "Lat": 37.5344826645458
    },
    {
      "number": 39,
      "title": "제이짐",
      "address": "서울특별시 용산구 장문로19길 4",
      "Lng": 126.997776901806,
      "Lat": 37.5261010462185
    },
    {
      "number": 40,
      "title": "더블에이 이촌",
      "address": "서울특별시 용산구 이촌로 192",
      "Lng": 126.968385483185,
      "Lat": 37.5211245635258
    },
    {
      "number": 41,
      "title": "피트 트레이닝센터",
      "address": "서울특별시 용산구 이촌로 347",
      "Lng": 126.989640056069,
      "Lat": 37.5190390043312
    },
    {
      "number": 42,
      "title": "파프짐",
      "address": "서울특별시 용산구 독서당로 97",
      "Lng": 127.010793156846,
      "Lat": 37.5353176383476
    },
    {
      "number": 43,
      "title": "만리 체육관",
      "address": "서울특별시 용산구 효창원로 276",
      "Lng": 126.963196340323,
      "Lat": 37.5515829147588
    },
    {
      "number": 44,
      "title": "찰스짐",
      "address": "서울특별시 용산구 이촌로88길 8",
      "Lng": 126.9777612795,
      "Lat": 37.5182520506344
    },
    {
      "number": 45,
      "title": "후핏",
      "address": "서울특별시 용산구 이촌로 274",
      "Lng": 126.977107892418,
      "Lat": 37.5186955798212
    },
    {
      "number": 46,
      "title": "스포짐 앤 이엠파워",
      "address": "서울특별시 용산구 독서당로 70",
      "Lng": 127.008698229017,
      "Lat": 37.533599152103
    },
    {
      "number": 47,
      "title": "판크 트레이닝클럽",
      "address": "서울특별시 용산구 한남대로 59",
      "Lng": 127.006713330015,
      "Lat": 37.5339901358324
    },
    {
      "number": 48,
      "title": "라온휘트니스",
      "address": "서울특별시 용산구 효창원로 132",
      "Lng": 126.96176853736,
      "Lat": 37.539777571047
    },
    {
      "number": 49,
      "title": "짐나우 퍼스널트레이닝",
      "address": "서울특별시 용산구 한남대로42길 33",
      "Lng": 127.002870076546,
      "Lat": 37.5436463107955
    },
    {
      "number": 50,
      "title": "진핏퍼스널트레이닝",
      "address": "서울특별시 용산구 한남대로 76",
      "Lng": 127.006549413089,
      "Lat": 37.5355614904423
    },
    {
      "number": 51,
      "title": "바나나휘트니스24",
      "address": "서울특별시 용산구 독서당로 67",
      "Lng": 127.008147487881,
      "Lat": 37.5338383170395
    },
    {
      "number": 52,
      "title": "ONE MORE",
      "address": "서울특별시 용산구 이태원로 216",
      "Lng": 126.998136551597,
      "Lat": 37.5346871460213
    },
    {
      "number": 53,
      "title": "스포벡휘트니스",
      "address": "서울특별시 용산구 한강대로 296",
      "Lng": 126.972459139429,
      "Lat": 37.5447120796372
    },
    {
      "number": 54,
      "title": "오아핏",
      "address": "서울특별시 용산구 청파로47나길 4",
      "Lng": 126.96705143888,
      "Lat": 37.5450481187804
    },
    {
      "number": 55,
      "title": "Sanctuary",
      "address": "서울특별시 용산구 장문로6길 4",
      "Lng": 126.992495377826,
      "Lat": 37.5281897116842
    },
    {
      "number": 56,
      "title": "망고짐",
      "address": "서울특별시 용산구 한강대로 282",
      "Lng": 126.972740100846,
      "Lat": 37.5434902095071
    },
    {
      "number": 57,
      "title": "F45 트레이닝 한남",
      "address": "서울특별시 용산구 독서당로 70",
      "Lng": 127.008698229017,
      "Lat": 37.533599152103
    },
    {
      "number": 58,
      "title": "바디컨설팅",
      "address": "서울특별시 용산구 한강대로 304",
      "Lng": 126.972320484208,
      "Lat": 37.5454262692875
    },
    {
      "number": 59,
      "title": "TIM GYM",
      "address": "서울특별시 용산구 대사관로34길 22",
      "Lng": 127.005777868302,
      "Lat": 37.5323610853046
    },
    {
      "number": 60,
      "title": "에이블짐 이태원역점",
      "address": "서울특별시 용산구 이태원로27나길 40",
      "Lng": 126.996922527709,
      "Lat": 37.5349413830509
    },
    {
      "number": 61,
      "title": "NEW RUN",
      "address": "서울특별시 용산구 한강대로 69",
      "Lng": 126.964892234354,
      "Lat": 37.5270404595814
    },
    {
      "number": 62,
      "title": "짐나우 신용산점",
      "address": "서울특별시 용산구 서빙고로 17",
      "Lng": 126.966566172294,
      "Lat": 37.5269056148241
    },
    {
      "number": 63,
      "title": "FIT NOMAD",
      "address": "서울특별시 용산구 이태원로17길 23-17",
      "Lng": 126.991044269175,
      "Lat": 37.5354446528838
    },
    {
      "number": 64,
      "title": "내셔널짐",
      "address": "서울특별시 용산구 백범로 341",
      "Lng": 126.967973433167,
      "Lat": 37.5379386735674
    },
    {
      "number": 65,
      "title": "모어피클",
      "address": "서울특별시 용산구 서빙고로 17",
      "Lng": 126.966566172294,
      "Lat": 37.5269056148241
    }
  ]
}